[
  {
    "name": "Canon EOS R5",
    "brand": "Canon",
    "model": "EOS R5",
    "description": "Professional full-frame mirrorless camera with 45MP sensor, 8K video recording, and advanced autofocus system. Perfect for professional photography and videography.",
    "dailyRate": 150,
    "image": "https://images.unsplash.com/photo-1516035069371-29a1b244cc32?w=800",
    "category": "Mirrorless",
    "specifications": {
      "resolution": "45MP",
      "sensor": "Full Frame CMOS",
      "iso": "100-51200",
      "weight": "650g",
      "video": "8K RAW, 4K 120p"
    },
    "location": {
      "city": "New York",
      "state": "NY",
      "zipCode": "10001"
    },
    "isAvailable": true
  },
  {
    "name": "Sony A7 IV",
    "brand": "Sony",
    "model": "A7 IV",
    "description": "Versatile full-frame mirrorless camera with 33MP sensor, 4K 60p video, and real-time tracking autofocus. Ideal for both photographers and videographers.",
    "dailyRate": 120,
    "image": "https://images.unsplash.com/photo-1606983340126-99ab4feaa64a?w=800",
    "category": "Mirrorless",
    "specifications": {
      "resolution": "33MP",
      "sensor": "Full Frame BSI-CMOS",
      "iso": "100-51200",
      "weight": "658g",
      "video": "4K 60p, 1080p 120p"
    },
    "location": {
      "city": "Los Angeles",
      "state": "CA",
      "zipCode": "90001"
    },
    "isAvailable": true
  },
  {
    "name": "Nikon D850",
    "brand": "Nikon",
    "model": "D850",
    "description": "Professional DSLR camera with 45.7MP full-frame sensor and 7fps continuous shooting. Excellent for landscape, portrait, and studio photography.",
    "dailyRate": 130,
    "image": "https://images.unsplash.com/photo-1606983340126-99ab4feaa64a?w=800",
    "category": "DSLR",
    "specifications": {
      "resolution": "45.7MP",
      "sensor": "Full Frame CMOS",
      "iso": "64-25600",
      "weight": "1005g",
      "video": "4K UHD 30p"
    },
    "location": {
      "city": "Chicago",
      "state": "IL",
      "zipCode": "60601"
    },
    "isAvailable": true
  },
  {
    "name": "DJI Mavic 3 Pro",
    "brand": "DJI",
    "model": "Mavic 3 Pro",
    "description": "Professional drone with triple-camera system, 5.1K video recording, and 43-minute flight time. Perfect for aerial photography and videography.",
    "dailyRate": 200,
    "image": "https://images.unsplash.com/photo-1473968512647-3e447244af8f?w=800",
    "category": "Drones",
    "specifications": {
      "resolution": "20MP",
      "sensor": "4/3 CMOS",
      "iso": "100-6400",
      "weight": "958g",
      "video": "5.1K 50fps, 4K 120fps"
    },
    "location": {
      "city": "Miami",
      "state": "FL",
      "zipCode": "33101"
    },
    "isAvailable": true
  },
  {
    "name": "Canon 5D Mark IV",
    "brand": "Canon",
    "model": "5D Mark IV",
    "description": "Classic professional DSLR with 30.4MP full-frame sensor, dual pixel autofocus, and 4K video. Trusted by professionals worldwide.",
    "dailyRate": 100,
    "image": "https://images.unsplash.com/photo-1606983340126-99ab4feaa64a?w=800",
    "category": "DSLR",
    "specifications": {
      "resolution": "30.4MP",
      "sensor": "Full Frame CMOS",
      "iso": "100-32000",
      "weight": "890g",
      "video": "4K 30p, 1080p 60p"
    },
    "location": {
      "city": "Seattle",
      "state": "WA",
      "zipCode": "98101"
    },
    "isAvailable": true
  },
  {
    "name": "Godox AD600 Pro",
    "brand": "Godox",
    "model": "AD600 Pro",
    "description": "Professional studio strobe light with 600W power output, HSS support, and wireless control. Perfect for studio and location photography.",
    "dailyRate": 80,
    "image": "https://images.unsplash.com/photo-1516035069371-29a1b244cc32?w=800",
    "category": "Lighting",
    "specifications": {
      "resolution": "N/A",
      "sensor": "N/A",
      "iso": "N/A",
      "weight": "3600g",
      "video": "N/A"
    },
    "location": {
      "city": "San Francisco",
      "state": "CA",
      "zipCode": "94102"
    },
    "isAvailable": true
  }
]

